{
"type": "FeatureCollection",
"name": "libraries_sample",
"crs": { "type": "name", "properties": { "name": "urn:ogc:def:crs:OGC:1.3:CRS84" } },
"features": [
{ "type": "Feature", "properties": { "xid": 53, "status": "L", "name": "Salt Lake City Public Library", "address": "210 E 400 S, SALT LAKE CITY UT 84111", "po_box": " ", "city": "SALT LAKE CITY", "county": "Salt Lake", "zip_code": "84111", "phone": "801-524-8200", "fax": "801-322-8194", "director": "Linda Hamilton", "asst_direc": "Karen Okabe", "director_email": "lhamilton@slcpl.org", "website": "https:\/\/www.slcpl.org\/branches\/view\/Main+Library", "hours_mond": "9:00 AM - 9:00 PM", "hours_tues": "9:00 AM - 9:00 PM", "hours_wedn": "9:00 AM - 9:00 PM", "hours_thur": "9:00 AM - 9:00 PM", "hours_frid": "9:00 AM - 6:00 PM", "hours_satu": "9:00 AM - 6:00 PM", "hours_sund": "1:00 PM - 5:00 PM", "library_id": "UT0048-002" }, "geometry": { "type": "Point", "coordinates": [ -111.884963166530682, 40.760371266112472 ] } },
{ "type": "Feature", "properties": { "xid": 89, "status": "L", "name": "Salt Lake City-Anderson Branch", "address": "1135 S 2100 E, SALT LAKE CITY UT 84108", "po_box": " ", "city": "SALT LAKE CITY", "county": "Salt Lake", "zip_code": "84108-1912", "phone": "801-594-8611", "fax": " ", "director": "Alveeda Lauscher", "asst_direc": " ", "director_email": " ", "website": "https:\/\/www.slcpl.org\/branches\/view\/Anderson-Foothill", "hours_mond": "10:00 AM - 9:00 PM", "hours_tues": "10:00 AM - 9:00 PM", "hours_wedn": "10:00 AM - 9:00 PM", "hours_thur": "10:00 AM - 9:00 PM", "hours_frid": "10:00 AM - 6:00 PM", "hours_satu": "10:00 AM - 6:00 PM", "hours_sund": "Closed", "library_id": "UT0048-003" }, "geometry": { "type": "Point", "coordinates": [ -111.830586278828775, 40.744304328402649 ] } },
{ "type": "Feature", "properties": { "xid": 90, "status": "L", "name": "Salt Lake City-Chapman Branch", "address": "577 S 900 W, SALT LAKE CITY UT 84104", "po_box": " ", "city": "SALT LAKE CITY", "county": "Salt Lake", "zip_code": "84104-1302", "phone": "801-594-8623", "fax": " ", "director": "Howard Brown", "asst_direc": " ", "director_email": " ", "website": "https:\/\/www.slcpl.org\/branches\/view\/Chapman", "hours_mond": "10:00 AM - 9:00 PM", "hours_tues": "10:00 AM - 9:00 PM", "hours_wedn": "10:00 AM - 9:00 PM", "hours_thur": "10:00 AM - 9:00 PM", "hours_frid": "10:00 AM - 6:00 PM", "hours_satu": "10:00 AM - 6:00 PM", "hours_sund": "Closed", "library_id": "UT0048-005" }, "geometry": { "type": "Point", "coordinates": [ -111.916290037840014, 40.756579978569377 ] } },
{ "type": "Feature", "properties": { "xid": 92, "status": "L", "name": "Salt Lake City-Sprague Branch", "address": "2131 S 1100 E, SALT LAKE CITY UT 84106", "po_box": " ", "city": "SALT LAKE CITY", "county": "Salt Lake", "zip_code": "84106-2806", "phone": "801-594-8640", "fax": " ", "director": "Ranae Pierce", "asst_direc": " ", "director_email": " ", "website": "https:\/\/www.slcpl.org\/branches\/view\/Sprague", "hours_mond": "10:00 AM - 9:00 PM", "hours_tues": "10:00 AM - 9:00 PM", "hours_wedn": "10:00 AM - 9:00 PM", "hours_thur": "10:00 AM - 9:00 PM", "hours_frid": "10:00 AM - 6:00 PM", "hours_satu": "10:00 AM - 6:00 PM", "hours_sund": "1:00 PM - 5:00 PM", "library_id": "UT0048-007" }, "geometry": { "type": "Point", "coordinates": [ -111.859551344830308, 40.724646488022259 ] } },
{ "type": "Feature", "properties": { "xid": 96, "status": "L", "name": "S.L  County-Columbus Branch", "address": "2530 S 500 E, SALT LAKE CITY UT 84106", "po_box": " ", "city": "SALT LAKE CITY", "county": "Salt Lake", "zip_code": "84106-1316", "phone": "801-944-7625", "fax": " ", "director": "Bobbie Pyron", "asst_direc": " ", "director_email": "bpyron@slco.lib.ut.us", "website": "http:\/\/www.slcolibrary.org\/gl\/glal\/libraryColumbus.htm", "hours_mond": "10:00 AM - 9:00 PM", "hours_tues": "10:00 AM - 9:00 PM", "hours_wedn": "10:00 AM - 9:00 PM", "hours_thur": "10:00 AM - 9:00 PM", "hours_frid": "10:00 AM - 6:00 PM", "hours_satu": "10:00 AM - 6:00 PM", "hours_sund": "Closed", "library_id": "UT0049-012" }, "geometry": { "type": "Point", "coordinates": [ -111.876982172994644, 40.715506847609461 ] } },
{ "type": "Feature", "properties": { "xid": 121, "status": "L", "name": "Byu Salt Lake Center Library", "address": "345 W NORTH TEMPLE ST, SALT LAKE CITY UT 84180", "po_box": "", "city": "SALT LAKE CITY", "county": "Salt Lake", "zip_code": "84180", "phone": "801-422-2927", "fax": "", "director": "", "asst_direc": "", "director_email": "", "website": "http:\/\/lib.byu.edu\/sites\/slcenter\/", "hours_mond": "8:00 AM - 7:30 PM", "hours_tues": "8:00 AM - 10:00 PM", "hours_wedn": "8:00 AM - 10:00 PM", "hours_thur": "8:00 AM - 10:00 PM", "hours_frid": "8:00 AM - 5:00 PM", "hours_satu": "8:00 AM - 1:00 PM", "hours_sund": "Closed", "library_id": "" }, "geometry": { "type": "Point", "coordinates": [ -111.901030971763277, 40.771103002420624 ] } },
{ "type": "Feature", "properties": { "xid": 122, "status": "L", "name": "Church History Library & Archives", "address": "15 E NORTH TEMPLE ST, SALT LAKE CITY UT 84150", "po_box": "", "city": "SALT LAKE CITY", "county": "Salt Lake", "zip_code": "84150", "phone": "801-240-2745", "fax": "", "director": "", "asst_direc": "", "director_email": "", "website": "http:\/\/churchhistorylibrary.lds.org\/primo_library\/libweb\/action\/search.do?vid=CHL_PUBLIC", "hours_mond": "9:00 AM - 5:00 PM", "hours_tues": "9:00 AM - 5:00 PM", "hours_wedn": "9:00 AM - 5:00 PM", "hours_thur": "9:00 AM - 9:00 PM", "hours_frid": "9:00 AM - 5:00 PM", "hours_satu": "9:00 AM - 2:00 PM", "hours_sund": "Closed", "library_id": "" }, "geometry": { "type": "Point", "coordinates": [ -111.889153034986805, 40.77166402510921 ] } },
{ "type": "Feature", "properties": { "xid": 128, "status": "L", "name": "Family History Library", "address": "35 N WEST TEMPLE ST, SALT LAKE CITY UT 84150", "po_box": "", "city": "SALT LAKE CITY", "county": "Salt Lake", "zip_code": "84150-3440", "phone": "801-240-2584", "fax": "", "director": "", "asst_direc": "", "director_email": "", "website": "https:\/\/familysearch.org\/", "hours_mond": "8:00 AM - 5:00 PM", "hours_tues": "8:00 AM - 9:00 PM", "hours_wedn": "8:00 AM - 9:00 PM", "hours_thur": "8:00 AM - 9:00 PM", "hours_frid": "8:00 AM - 9:00 PM", "hours_satu": "8:00 AM - 9:00 PM", "hours_sund": "Closed", "library_id": "" }, "geometry": { "type": "Point", "coordinates": [ -111.894089036955179, 40.770119045569245 ] } },
{ "type": "Feature", "properties": { "xid": 134, "status": "L", "name": "Huntsman Cancer Learning Center", "address": "1950 CIRCLE OF HOPE, SALT LAKE CITY UT 84112", "po_box": "", "city": "SALT LAKE CITY", "county": "Salt Lake", "zip_code": "84112", "phone": "801-581-6365", "fax": "", "director": "", "asst_direc": "", "director_email": "", "website": "http:\/\/www.huntsmancancer.org\/cancer-information\/cancer-learning-center\/cancer-learning-center", "hours_mond": "9:00 AM - 5:00 PM", "hours_tues": "9:00 AM - 5:00 PM", "hours_wedn": "9:00 AM - 5:00 PM", "hours_thur": "9:00 AM - 5:00 PM", "hours_frid": "9:00 AM - 5:00 PM", "hours_satu": "Closed", "hours_sund": "Closed", "library_id": "" }, "geometry": { "type": "Point", "coordinates": [ -111.834503022152219, 40.772514039344159 ] } },
{ "type": "Feature", "properties": { "xid": 135, "status": "L", "name": "Lds Business College Library", "address": "95 N 300 W, SALT LAKE CITY UT 84101", "po_box": "", "city": "SALT LAKE CITY", "county": "Salt Lake", "zip_code": "84101-3500", "phone": "801-524-8150", "fax": "", "director": "", "asst_direc": "", "director_email": "", "website": "http:\/\/library.ldsbc.edu\/", "hours_mond": "8:00 AM - 6:00 PM", "hours_tues": "8:00 AM - 10:00 PM", "hours_wedn": "8:00 AM - 10:00 PM", "hours_thur": "8:00 AM - 10:00 PM", "hours_frid": "8:00 AM - 6:00 PM", "hours_satu": "11:00 AM - 6:00 PM", "hours_sund": "Closed", "library_id": "" }, "geometry": { "type": "Point", "coordinates": [ -111.900245966741011, 40.77113002876893 ] } },
{ "type": "Feature", "properties": { "xid": 136, "status": "L", "name": "Mountain West Digital Library", "address": "295 S 1500 E, SALT LAKE CITY UT 84112", "po_box": "", "city": "SALT LAKE CITY", "county": "Salt Lake", "zip_code": "84112-0860", "phone": "801-585-0969", "fax": "", "director": "Sandra McIntyre", "asst_direc": "", "director_email": "sandra.mcintyre@utah.edu", "website": "http:\/\/mwdl.org\/", "hours_mond": "", "hours_tues": "", "hours_wedn": "", "hours_thur": "", "hours_frid": "", "hours_satu": "", "hours_sund": "", "library_id": "" }, "geometry": { "type": "Point", "coordinates": [ -111.846031051289557, 40.762420980820423 ] } },
{ "type": "Feature", "properties": { "xid": 144, "status": "L", "name": "Salt Lake Community College - South City Campus Library", "address": "1575 S STATE ST, SALT LAKE CITY UT 84115", "po_box": "", "city": "SALT LAKE CITY", "county": "Salt Lake", "zip_code": "84115", "phone": "801-957-3432", "fax": "", "director": "Richard Daines", "asst_direc": "", "director_email": "Richard.Daines@slcc.edu", "website": "http:\/\/libweb.slcc.edu\/", "hours_mond": "8:00 AM - 10:00 PM", "hours_tues": "8:00 AM - 10:00 PM", "hours_wedn": "8:00 AM - 10:00 PM", "hours_thur": "8:00 AM - 10:00 PM", "hours_frid": "8:00 AM - 4:00 PM", "hours_satu": "Closed", "hours_sund": "Closed", "library_id": "" }, "geometry": { "type": "Point", "coordinates": [ -111.887947011829382, 40.734447005303132 ] } },
{ "type": "Feature", "properties": { "xid": 154, "status": "L", "name": "University Of Utah - Eccles Health Sciences Library", "address": "10 N 1900 E, SALT LAKE CITY UT 84112", "po_box": "", "city": "SALT LAKE CITY", "county": "Salt Lake", "zip_code": "84112-5890", "phone": "801-581-8771", "fax": "", "director": "Jean Shipman", "asst_direc": "", "director_email": "jean.shipman@utah.edu", "website": "http:\/\/library.med.utah.edu\/index.php", "hours_mond": "7:00 AM - 9:00 PM", "hours_tues": "7:00 AM - 9:00 PM", "hours_wedn": "7:00 AM - 9:00 PM", "hours_thur": "7:00 AM - 9:00 PM", "hours_frid": "7:00 AM - 6:00 PM", "hours_satu": "10:00 AM - 6:00 PM", "hours_sund": "1:00 PM - 9:00 PM", "library_id": "" }, "geometry": { "type": "Point", "coordinates": [ -111.83504500447394, 40.768566036495237 ] } },
{ "type": "Feature", "properties": { "xid": 155, "status": "L", "name": "University Of Utah - Marriott Library", "address": "295 S 1500 E, SALT LAKE CITY UT 84112", "po_box": "", "city": "SALT LAKE CITY", "county": "Salt Lake", "zip_code": "84112-0860", "phone": "801-581-8558", "fax": "", "director": "", "asst_direc": "", "director_email": "", "website": "http:\/\/www.lib.utah.edu\/", "hours_mond": "7:00 AM - 2:00 AM", "hours_tues": "7:00 AM - 2:00 AM", "hours_wedn": "7:00 AM - 2:00 AM", "hours_thur": "7:00 AM - 2:00 AM", "hours_frid": "7:00 AM - 8:00 PM", "hours_satu": "9:00 AM - 8:00 PM", "hours_sund": "Noon - 2:00 AM", "library_id": "" }, "geometry": { "type": "Point", "coordinates": [ -111.846236961431728, 40.762401994655292 ] } },
{ "type": "Feature", "properties": { "xid": 156, "status": "L", "name": "University Of Utah - Quinney Law Library", "address": "332 S 1400 E, SALT LAKE CITY UT 84112", "po_box": "", "city": "SALT LAKE CITY", "county": "Salt Lake", "zip_code": "84112-0300", "phone": "801-581-6438", "fax": "", "director": "Melissa Bernstein", "asst_direc": "", "director_email": "melissa.bernstein@law.utah.edu", "website": "http:\/\/www.law.utah.edu\/library\/", "hours_mond": "7:00 AM - 8:00 PM", "hours_tues": "7:00 AM - 8:00 PM", "hours_wedn": "7:00 AM - 8:00 PM", "hours_thur": "7:00 AM - 8:00 PM", "hours_frid": "7:00 AM - 6:00 PM", "hours_satu": "9:00 AM - 5:00 PM", "hours_sund": "Noon - 8:00 PM", "library_id": "" }, "geometry": { "type": "Point", "coordinates": [ -111.851402046047156, 40.761867997795605 ] } },
{ "type": "Feature", "properties": { "xid": 158, "status": "L", "name": "Utah State Archives", "address": "346 S RIO GRANDE ST, SALT LAKE CITY UT 84101", "po_box": "", "city": "SALT LAKE CITY", "county": "Salt Lake", "zip_code": "84101-1106", "phone": "801-531-3848", "fax": "", "director": "Patricia Smith-Mansfield", "asst_direc": "", "director_email": "pmansfie@utah.gov", "website": "http:\/\/archives.utah.gov\/", "hours_mond": "8:00 AM - 5:00 PM", "hours_tues": "8:00 AM - 5:00 PM", "hours_wedn": "8:00 AM - 5:00 PM", "hours_thur": "8:00 AM - 5:00 PM", "hours_frid": "8:00 AM - 5:00 PM", "hours_satu": "Closed", "hours_sund": "Closed", "library_id": "" }, "geometry": { "type": "Point", "coordinates": [ -111.90411398253174, 40.761683988905986 ] } },
{ "type": "Feature", "properties": { "xid": 159, "status": "L", "name": "Utah State History", "address": "300 S RIO GRANDE ST, SALT LAKE CITY UT 84101", "po_box": "", "city": "SALT LAKE CITY", "county": "Salt Lake", "zip_code": "84101-1106", "phone": "801-533-3500", "fax": "", "director": "Wilson G. Martin", "asst_direc": "", "director_email": "wmartin@utah.gov", "website": "http:\/\/history.utah.gov\/", "hours_mond": "8:00 AM - 5:00 PM", "hours_tues": "8:00 AM - 5:00 PM", "hours_wedn": "8:00 AM - 5:00 PM", "hours_thur": "8:00 AM - 5:00 PM", "hours_frid": "8:00 AM - 5:00 PM", "hours_satu": "Closed", "hours_sund": "Closed", "library_id": "" }, "geometry": { "type": "Point", "coordinates": [ -111.904663011610296, 40.762943030360262 ] } },
{ "type": "Feature", "properties": { "xid": 161, "status": "L", "name": "Utah State Law Library", "address": "450 S STATE ST, SALT LAKE CITY UT 84111", "po_box": "", "city": "SALT LAKE CITY", "county": "Salt Lake", "zip_code": "84111-3101", "phone": "801-238-7990", "fax": "", "director": "", "asst_direc": "", "director_email": "", "website": "http:\/\/www.utcourts.gov\/lawlibrary\/", "hours_mond": "8:00 AM - 5:00 PM", "hours_tues": "8:00 AM - 5:00 PM", "hours_wedn": "8:00 AM - 5:00 PM", "hours_thur": "8:00 AM - 5:00 PM", "hours_frid": "8:00 AM - 5:00 PM", "hours_satu": "Closed", "hours_sund": "Closed", "library_id": "" }, "geometry": { "type": "Point", "coordinates": [ -111.888381959867218, 40.759499014618882 ] } },
{ "type": "Feature", "properties": { "xid": 162, "status": "L", "name": "Utah State Library", "address": "250 N 1950 W, SALT LAKE CITY UT 84116", "po_box": "", "city": "SALT LAKE CITY", "county": "Salt Lake", "zip_code": "84116-7901", "phone": "801-715-6789", "fax": "", "director": "Donna Jones Morris", "asst_direc": "", "director_email": "dmorris@utah.gov", "website": "http:\/\/library.utah.gov\/", "hours_mond": "8:00 AM - 5:00 PM", "hours_tues": "8:00 AM - 5:00 PM", "hours_wedn": "8:00 AM - 5:00 PM", "hours_thur": "8:00 AM - 5:00 PM", "hours_frid": "8:00 AM - 5:00 PM", "hours_satu": "Closed", "hours_sund": "Closed", "library_id": "" }, "geometry": { "type": "Point", "coordinates": [ -111.94735702252116, 40.775786959968002 ] } },
{ "type": "Feature", "properties": { "xid": 174, "status": "L", "name": "Westminster College - Giovale Library", "address": "1840 S 1300 E, SALT LAKE CITY UT 84105", "po_box": "", "city": "SALT LAKE CITY", "county": "Salt Lake", "zip_code": "84105", "phone": "801-832-2250", "fax": "", "director": "Diane VanderPol", "asst_direc": "", "director_email": "dvanderpol@westminstercollege.edu", "website": "http:\/\/www.westminstercollege.edu\/library\/#page=catalog", "hours_mond": "7:30 AM - 11:00 PM", "hours_tues": "7:30 AM - 11:00 PM", "hours_wedn": "7:30 AM - 11:00 PM", "hours_thur": "7:30 AM - 11:00 PM", "hours_frid": "7:30 AM - 6:00 PM", "hours_satu": "9:00 AM - 6:00 PM", "hours_sund": "11:00 AM - 11:00 PM", "library_id": "" }, "geometry": { "type": "Point", "coordinates": [ -111.855736040104077, 40.731422033811441 ] } }
]
}
